City_ID,City,Lat,Lng,Max Temp,Humidity,Cloudiness,Wind Speed,Country,Date
0,mount gambier,-37.8333,140.7667,10.97,92,17,1.39,AU,1675626894
1,rikitea,-23.1203,-134.9692,25.98,75,7,7.14,PF,1675626894
2,teluknaga,-6.0989,106.6381,28.68,83,40,2.57,ID,1675626894
3,matagami,49.7502,-77.6328,-16.94,66,0,2.06,CA,1675626895
4,butaritari,3.0707,172.7902,27.01,81,100,8.81,KI,1675626895
5,hilo,19.7297,-155.09,25.34,82,40,2.06,US,1675626646
6,turukhansk,65.8167,87.9833,-17.55,99,97,0.96,RU,1675626896
7,kahului,20.8947,-156.47,25.54,79,20,9.26,US,1675626896
8,busselton,-33.65,115.3333,19.31,80,39,6.17,AU,1675626897
9,upernavik,72.7868,-56.1549,-25.07,93,100,0.5,GL,1675626897
10,sinfra,6.6167,-5.9167,28.83,41,60,1.63,CI,1675626897
11,new norfolk,-42.7826,147.0587,14.72,64,100,0.89,AU,1675626898
12,thompson,55.7435,-97.8558,-15.91,85,100,1.03,CA,1675626898
13,hobart,-42.8794,147.3294,14.92,75,75,6.69,AU,1675626644
14,lompoc,34.6391,-120.4579,17.23,74,75,7.2,US,1675626899
15,mar del plata,-38.0023,-57.5575,32.13,40,0,5.66,AR,1675626899
16,kodiak,57.79,-152.4072,3.73,100,100,8.23,US,1675626900
17,kirakira,-10.4544,161.9205,25.57,97,100,9.4,SB,1675626900
18,kapaa,22.0752,-159.319,24.18,89,75,7.72,US,1675626901
19,ushuaia,-54.8,-68.3,9.79,81,40,15.95,AR,1675626901
20,quelimane,-17.8786,36.8883,27.97,83,75,2.24,MZ,1675626901
21,keetmanshoop,-26.5833,18.1333,26.43,49,92,6.08,NA,1675626902
22,provideniya,64.3833,-173.3,-17.01,95,98,4.62,RU,1675626904
23,mataura,-46.1927,168.8643,13.43,97,100,5.08,NZ,1675626908
24,aguimes,27.9054,-15.4461,15.92,63,20,2.57,ES,1675626910
25,punta arenas,-53.15,-70.9167,13.06,38,0,15.43,CL,1675626911
26,luce,48.4369,1.4636,4.75,82,29,3.13,FR,1675626911
27,turayf,31.6725,38.6637,7.14,57,0,4.12,SA,1675626912
28,lagoa,39.05,-27.9833,15.32,85,52,7.76,PT,1675626914
29,nikolskoye,59.7035,30.7861,-4.06,93,100,3.27,RU,1675626917
30,clinton,42.587,-82.9199,6.7,65,75,6.69,US,1675626919
31,andros town,24.7,-77.7667,26.98,70,5,7.29,BS,1675626920
32,shelburne,44.0787,-80.2041,2.72,81,100,6.66,CA,1675626922
33,vaini,-21.2,-175.2,25.09,83,75,0.51,TO,1675626923
34,port alfred,-33.5906,26.891,22.32,93,22,2.24,ZA,1675626924
35,port elizabeth,-33.918,25.5701,25.05,92,20,8.23,ZA,1675626924
36,miles city,46.4083,-105.8406,4.54,60,0,5.66,US,1675626925
37,kamaishi,39.2667,141.8833,-0.14,76,60,3.2,JP,1675626926
38,marawi,7.9986,124.2928,19.61,89,100,1.04,PH,1675626648
39,iqaluit,63.7506,-68.5145,-27.95,68,100,7.72,CA,1675626782
40,huancabamba,-5.2386,-79.4506,21.15,65,70,1.68,PE,1675626927
41,aripuana,-9.1667,-60.6333,27.47,87,87,0.79,BR,1675626928
42,akyab,20.15,92.9,18.4,58,97,4.26,MM,1675626931
43,molina,-35.1167,-71.2833,28.85,42,1,2.06,CL,1675626903
44,cape town,-33.9258,18.4232,21.23,82,0,8.23,ZA,1675626682
45,galesong,-5.3166,119.3661,25.01,82,100,3.17,ID,1675626932
46,tucurui,-3.7661,-49.6725,28.76,74,51,1.23,BR,1675626933
47,osoyoos,49.0331,-119.4524,3.42,93,100,0.51,CA,1675626933
48,avarua,-21.2078,-159.775,27.03,89,75,5.66,CK,1675626934
49,ayagoz,47.9714,80.4392,-2.38,96,100,5.65,KZ,1675626934
50,huarmey,-10.0681,-78.1522,25.17,70,35,4.5,PE,1675626935
51,souillac,-20.5167,57.5167,26.21,83,40,4.12,MU,1675626935
52,bay roberts,47.5999,-53.2648,-2.04,74,92,5.36,CA,1675626936
53,laguna,38.421,-121.4238,14.52,71,0,4.63,US,1675626936
54,chokurdakh,70.6333,147.9167,-40.67,100,83,1.19,RU,1675626937
55,san lawrenz,36.0553,14.204,9.67,54,1,9.97,MT,1675626937
56,labuhan,-6.8844,112.2051,25.16,86,100,4.11,ID,1675626937
57,chaoyang,41.5703,120.4586,-5.43,51,7,1.67,CN,1675626938
58,qaanaaq,77.484,-69.3632,-19.2,60,0,4.0,GL,1675626938
59,gigmoto,13.7796,124.39,25.15,88,65,4.28,PH,1675626939
60,talnakh,69.4865,88.3972,-15.44,97,99,1.59,RU,1675626939
61,saint-philippe,-21.3585,55.7679,26.77,87,92,4.86,RE,1675626939
62,saldanha,-33.0117,17.9442,19.03,87,11,9.1,ZA,1675626940
63,pronsk,54.1048,39.6092,-5.28,97,99,2.02,RU,1675626940
64,coquimbo,-29.9533,-71.3436,22.85,64,0,7.72,CL,1675626941
65,cardston,49.2,-113.3019,6.16,49,100,3.6,CA,1675626941
66,carutapera,-1.195,-46.02,25.85,89,100,3.3,BR,1675626942
67,saint anthony,45.0205,-93.218,-0.62,67,0,3.6,US,1675626942
68,emerald,-23.5333,148.1667,24.63,91,92,4.48,AU,1675626943
69,opuwo,-18.0607,13.84,22.04,39,89,3.23,NA,1675626943
70,kisangani,0.5167,25.2,24.42,55,8,1.09,CD,1675626944
71,mnogovershinnyy,53.9353,139.9242,-24.96,97,95,1.79,RU,1675626944
72,touros,-5.1989,-35.4608,27.65,72,100,5.49,BR,1675626944
73,hovd,48.0056,91.6419,-15.89,78,6,1.42,MN,1675626945
74,port blair,11.6667,92.75,27.02,83,40,1.54,IN,1675626814
75,goderich,43.7501,-81.7165,3.84,80,100,7.2,CA,1675626946
76,marijampole,54.5667,23.35,-3.38,77,92,1.88,LT,1675626834
77,albany,42.6001,-73.9662,5.7,46,99,0.89,US,1675626946
78,capanema,-1.1958,-47.1808,25.49,92,100,2.24,BR,1675626947
79,conceicao do mato dentro,-19.0372,-43.425,26.9,74,88,0.58,BR,1675626947
80,saskylakh,71.9167,114.0833,-41.06,100,98,1.78,RU,1675626947
81,avera,33.194,-82.5271,18.54,60,100,2.35,US,1675626948
82,moranbah,-22.0016,148.0466,23.5,96,73,5.1,AU,1675626948
83,tari,12.4086,4.4914,29.24,11,100,3.75,NG,1675626949
84,dingle,10.9995,122.6711,23.16,93,100,3.57,PH,1675626949
85,north bend,43.4065,-124.2243,10.09,87,75,6.17,US,1675626949
86,longyearbyen,78.2186,15.6401,-3.09,74,75,9.77,SJ,1675626950
87,coahuayana,18.7333,-103.6833,31.38,41,0,3.66,MX,1675626951
88,sheridan,44.8333,-106.9173,0.81,67,100,3.09,US,1675626951
89,manaus,-3.1019,-60.025,26.28,94,75,1.54,BR,1675626951
90,beidao,34.5686,105.8933,5.36,59,100,1.08,CN,1675626952
91,kautokeino,69.0125,23.0412,-11.75,93,76,1.67,NO,1675626952
92,iberia,29.9502,-91.7507,21.09,49,75,3.09,US,1675626953
93,wapi pathum,15.8452,103.3768,28.31,69,92,1.46,TH,1675626953
94,morros,-9.4467,-46.3003,31.95,37,19,3.43,BR,1675626953
95,atuona,-9.8,-139.0333,25.78,81,30,7.42,PF,1675626954
96,tuatapere,-46.1333,167.6833,14.62,92,85,5.92,NZ,1675626954
97,diapaga,12.0708,1.7889,30.14,10,100,3.03,BF,1675626955
98,tecoanapa,16.5167,-98.75,28.77,52,0,4.56,MX,1675626955
99,tromso,69.6496,18.957,3.01,65,75,6.17,NO,1675626955
100,raga,8.4596,25.678,24.6,15,7,1.28,SS,1675626956
101,chuy,-33.6971,-53.4616,24.14,56,0,4.94,UY,1675626956
102,kraslava,55.8951,27.168,-8.75,97,100,1.37,LV,1675626957
103,yellowknife,62.456,-114.3525,-24.71,77,100,4.12,CA,1675626951
104,codrington,-38.2667,141.9667,13.2,85,39,2.27,AU,1675626958
105,tonj,7.2737,28.6822,27.37,14,13,2.16,SS,1675626958
106,semnan,35.5729,53.3971,4.91,45,0,1.03,IR,1675626958
107,salalah,17.0151,54.0924,23.05,73,0,2.06,OM,1675626959
108,castro,-24.7911,-50.0119,23.11,66,85,3.06,BR,1675626959
109,cairns,-16.9167,145.7667,26.7,97,75,3.6,AU,1675626738
110,bonavista,48.6499,-53.1147,-4.82,63,100,9.89,CA,1675626960
111,waipawa,-41.4122,175.5153,18.82,70,0,6.8,NZ,1675626960
112,kudahuvadhoo,2.6708,72.8944,26.37,75,61,1.05,MV,1675626961
113,la fleche,47.6982,-0.0755,7.11,81,13,4.37,FR,1675626961
114,ponta do sol,32.6667,-17.1,16.74,51,62,2.06,PT,1675626962
115,rurrenabaque,-14.4413,-67.5278,19.93,99,100,0.82,BO,1675626963
116,bredasdorp,-34.5322,20.0403,21.62,76,100,3.1,ZA,1675626963
117,barao de melgaco,-16.1944,-55.9675,31.91,51,53,1.87,BR,1675626964
118,caruray,10.3094,119.0128,24.56,90,90,2.51,PH,1675626965
119,tiksi,71.6872,128.8694,-33.61,100,100,1.54,RU,1675626965
120,kaitangata,-46.2817,169.8464,15.02,86,100,8.21,NZ,1675626966
121,saint-augustin,51.226,-58.6502,-14.91,79,100,1.98,CA,1675626967
122,berezovka,53.7214,25.4993,-8.18,95,64,1.99,BY,1675626967
123,turan,16.0678,108.2208,23.99,88,75,1.54,VN,1675626968
124,revelstoke,50.9832,-118.2023,1.01,93,100,2.06,CA,1675626969
125,caetite,-14.0694,-42.475,28.87,50,4,1.01,BR,1675626969
126,saint-georges,12.0564,-61.7485,25.89,76,67,8.07,GD,1675626970
127,san cristobal,7.7669,-72.225,25.1,56,55,2.87,VE,1675626971
128,kansanshi,-12.0951,26.4273,16.36,97,96,2.0,ZM,1675626972
129,lure,47.75,6.5,4.65,87,100,2.06,FR,1675626973
130,esperance,-33.8667,121.9,20.34,65,72,7.89,AU,1675626974
131,aquin,18.2833,-73.4,27.28,63,21,3.55,HT,1675626974
132,visby,57.6409,18.296,0.12,100,75,6.17,SE,1675626975
133,takoradi,4.8845,-1.7554,27.4,82,98,4.73,GH,1675626975
134,jamestown,42.097,-79.2353,6.8,49,100,8.75,US,1675626906
135,hermanus,-34.4187,19.2345,20.45,84,89,4.26,ZA,1675626977
136,alofi,-19.0595,-169.9187,24.94,94,40,2.06,NU,1675626978
137,maxixe,-23.8597,35.3472,23.24,88,0,3.32,MZ,1675626979
138,honiara,-9.4333,159.95,25.32,97,100,5.51,SB,1675626778
139,morant bay,17.8815,-76.4093,31.51,65,5,6.41,JM,1675626981
140,mackenzie,55.2999,-123.1698,2.12,87,100,4.63,CA,1675626982
141,bethel,41.3712,-73.414,7.93,35,100,4.11,US,1675626881
142,inirida,3.8653,-67.9239,25.56,88,100,0.91,CO,1675626984
143,colquiri,-17.4167,-67.1333,2.57,88,100,2.28,BO,1675626985
144,victoria,22.2855,114.1577,19.97,89,100,1.34,HK,1675626986
145,georgetown,5.4112,100.3354,24.96,100,20,0.51,MY,1675626894
146,puerto ayora,-0.7393,-90.3518,29.98,89,41,3.13,EC,1675626987
147,trelew,-43.249,-65.3051,24.78,44,9,12.52,AR,1675626771
148,arraial do cabo,-22.9661,-42.0278,28.98,70,40,3.6,BR,1675626988
149,durres,41.3231,19.4414,1.1,52,0,9.17,AL,1675626758
150,hiriyur,13.9456,76.6192,22.69,47,100,3.38,IN,1675626989
151,cherskiy,68.75,161.3,-41.36,100,100,2.07,RU,1675626989
152,hithadhoo,-0.6,73.0833,27.1,71,96,4.98,MV,1675626990
153,bluff,-46.6,168.3333,15.11,86,68,11.46,NZ,1675626990
154,dno,57.8277,29.9637,-7.97,91,100,2.73,RU,1675626991
155,san patricio,28.017,-97.5169,25.92,52,1,2.91,US,1675626991
156,caravelas,-17.7125,-39.2481,28.0,70,0,5.17,BR,1675626992
157,talcahuano,-36.7167,-73.1167,18.82,72,28,5.66,CL,1675626916
158,kiruna,67.8557,20.2251,-4.49,74,9,4.12,SE,1675626992
159,mananara,-16.1667,49.7667,23.33,94,100,1.94,MG,1675626993
160,pavlodar,52.3,76.95,-15.11,78,100,2.0,KZ,1675626979
161,axim,4.8699,-2.2405,27.19,84,100,4.46,GH,1675626993
162,bremerton,47.5673,-122.6326,9.4,92,100,3.6,US,1675626821
163,belmonte,-15.8631,-38.8828,27.96,69,1,5.62,BR,1675626994
164,klaksvik,62.2266,-6.589,8.51,95,100,15.26,FO,1675626994
165,dikson,73.5069,80.5464,-20.39,98,100,1.57,RU,1675626995
166,saint george,37.1041,-113.5841,16.91,34,0,1.54,US,1675626995
167,leningradskiy,69.3833,178.4167,-30.49,98,100,2.06,RU,1675626995
168,samarai,-10.6167,150.6667,26.47,85,100,6.66,PG,1675626996
169,palmer,42.1584,-72.3287,9.65,32,75,4.63,US,1675626996
170,black river,18.0264,-77.8487,29.33,54,2,8.14,JM,1675626997
171,severo-kurilsk,50.6789,156.125,-4.02,80,99,3.01,RU,1675626997
172,tibati,6.4667,12.6333,24.41,16,99,2.83,CM,1675626997
173,khatanga,71.9667,102.5,-35.76,97,87,2.5,RU,1675626998
174,santiago de cuba,20.0247,-75.8219,28.06,69,20,3.6,CU,1675626998
175,loandjili,-4.7561,11.8578,27.06,89,40,2.57,CG,1675626998
176,bridgewater,44.3835,-64.5155,4.79,89,100,7.72,CA,1675626999
177,ayan,56.45,138.1667,-22.92,81,88,3.56,RU,1675626999
178,kosonsoy,41.2561,71.5508,2.31,64,100,1.84,UZ,1675627000
179,ngunguru,-35.6167,174.5,18.71,90,100,3.66,NZ,1675627000
180,dibrugarh,27.4833,94.9,15.52,50,0,1.45,IN,1675627001
181,vitim,59.4511,112.5578,-24.42,100,100,1.07,RU,1675627001
182,vanavara,60.34,102.2797,-15.65,98,100,0.58,RU,1675627001
183,tyukhtet,56.5389,89.3011,-22.27,100,74,1.58,RU,1675627002
184,ancud,-41.8697,-73.8203,17.5,72,23,5.04,CL,1675627002
185,raudeberg,61.9875,5.1352,6.59,68,99,7.65,NO,1675627003
186,kloulklubed,7.0419,134.2556,26.28,78,100,8.11,PW,1675627003
187,husavik,66.0449,-17.3389,7.8,78,100,17.33,IS,1675627003
188,omboue,-1.5746,9.2618,25.98,84,100,2.17,GA,1675627004
189,hamilton,39.1834,-84.5333,11.47,57,100,7.72,US,1675626656
190,amapa,1.0,-52.0,23.65,97,100,1.79,BR,1675626798
191,ilulissat,69.2167,-51.1,-22.41,98,100,4.15,GL,1675627005
192,geraldton,-28.7667,114.6,23.23,73,100,4.12,AU,1675627005
193,bathsheba,13.2167,-59.5167,28.34,65,40,10.8,BB,1675627005
194,nizwa,22.9333,57.5333,21.41,54,68,0.69,OM,1675627006
195,noyabrsk,63.1994,75.4507,-19.13,100,100,1.1,RU,1675627006
196,morondava,-20.2833,44.2833,25.78,83,71,2.76,MG,1675627007
197,namibe,-15.1961,12.1522,22.32,78,30,2.83,AO,1675627007
198,lebu,-37.6167,-73.65,18.49,77,3,9.07,CL,1675627007
199,zhigansk,66.7697,123.3711,-42.2,97,98,1.03,RU,1675627008
200,hofn,64.2539,-15.2082,7.7,98,100,12.08,IS,1675627008
201,dubai,25.2582,55.3047,20.96,73,0,2.06,AE,1675626671
202,torbay,47.6666,-52.7314,-2.46,73,40,12.35,CA,1675627009
203,marshalltown,42.0494,-92.908,3.13,75,0,6.17,US,1675627009
204,tuktoyaktuk,69.4541,-133.0374,-43.0,66,20,1.03,CA,1675627009
205,yar-sale,66.8333,70.8333,-25.41,100,48,1.93,RU,1675627010
206,cidreira,-30.1811,-50.2056,27.08,58,2,6.91,BR,1675627010
207,moron,-34.6534,-58.6198,31.94,42,0,2.15,AR,1675627011
208,najran,17.4924,44.1277,19.36,30,100,0.93,SA,1675627011
209,fort nelson,58.8053,-122.7002,-14.47,78,100,2.57,CA,1675627012
210,kirando,-7.4167,30.6,22.39,80,99,2.18,TZ,1675627012
211,banapur,19.7833,85.1833,19.97,64,3,2.26,IN,1675627012
212,san jose,37.3394,-121.895,13.89,80,75,4.92,US,1675626457
213,olkhovatka,50.2831,39.2872,-5.88,96,100,2.21,RU,1675627013
214,ribeira grande,38.5167,-28.7,16.54,88,75,7.15,PT,1675627014
215,pisco,-13.7,-76.2167,25.03,78,0,4.63,PE,1675627014
216,nhulunbuy,-12.2333,136.7667,25.34,88,75,0.0,AU,1675627015
217,mahebourg,-20.4081,57.7,26.81,83,40,4.12,MU,1675627015
218,makakilo city,21.3469,-158.0858,25.18,74,0,7.72,US,1675627015
219,petauke,-14.2426,31.3253,19.14,94,100,0.44,ZM,1675627016
220,camocim,-2.9022,-40.8411,27.69,76,100,6.37,BR,1675627017
221,chester,40.1254,-75.8749,8.32,50,0,4.02,US,1675627017
222,mwaya,-9.55,33.95,22.79,85,99,1.93,TZ,1675627017
223,quatre cocos,-20.2078,57.7625,26.72,80,33,5.83,MU,1675627018
224,nome,64.5011,-165.4064,-8.96,79,75,3.09,US,1675627018
225,kuching,1.55,110.3333,26.68,91,40,0.0,MY,1675626887
226,berck,50.4,1.6,5.28,87,75,1.54,FR,1675627019
227,lodja,-3.4833,23.4333,24.75,61,100,0.89,CD,1675627019
228,zavyalovo,54.5053,82.4484,-21.39,97,63,1.04,RU,1675627020
229,kharp,66.8014,65.8081,-17.24,91,21,3.6,RU,1675627020
230,senanga,-16.1167,23.2667,20.47,90,100,2.41,ZM,1675627021
231,dingzhou,38.5131,114.9956,-0.94,35,91,2.84,CN,1675627021
232,lavrentiya,65.5833,-171.0,-19.77,95,100,4.14,RU,1675627021
233,kawalu,-7.3817,108.2082,22.35,87,100,1.23,ID,1675627022
234,kushiro,42.975,144.3747,-7.49,85,53,1.24,JP,1675627023
235,margate,51.3813,1.3862,5.94,83,79,2.24,GB,1675627024
236,chicama,-7.8447,-79.1469,26.3,53,34,5.27,PE,1675627024
237,edd,13.9297,41.6925,25.56,78,58,4.3,ER,1675627025
238,fray bentos,-33.1325,-58.2956,33.81,12,0,0.91,UY,1675627026
239,vila franca do campo,37.7167,-25.4333,15.23,86,35,2.68,PT,1675627027
240,kathmandu,27.7167,85.3167,11.02,75,20,1.54,NP,1675626698
241,khorinsk,52.1657,109.7726,-25.41,99,95,0.83,RU,1675627028
242,walvis bay,-22.9575,14.5053,18.38,81,100,2.58,NA,1675627029
243,kupino,54.3663,77.2981,-20.01,100,85,3.27,RU,1675627030
244,koungou,-12.7336,45.2042,27.84,83,100,2.06,YT,1675627031
245,itarema,-2.9248,-39.9167,27.35,75,96,5.83,BR,1675626955
246,dokka,60.84,10.0618,-7.81,93,99,2.07,NO,1675627032
247,cocorit,27.5833,-109.9667,30.43,15,1,1.26,MX,1675627033
248,maryville,35.7565,-83.9705,15.15,58,75,7.2,US,1675626843
249,sao paulo de olivenca,-3.3783,-68.8725,27.02,72,91,1.87,BR,1675627035
250,auki,-8.7676,160.7034,24.88,93,100,5.37,SB,1675627036
251,jiwani,25.05,61.7417,21.72,79,0,5.39,PK,1675627037
252,xining,36.6167,101.7667,-4.77,54,1,0.34,CN,1675627037
253,lorengau,-2.0226,147.2712,27.21,80,100,2.12,PG,1675627038
254,barrow,71.2906,-156.7887,-26.99,69,100,3.09,US,1675627040
255,naujamiestis,55.6869,24.1523,-3.71,74,100,2.24,LT,1675627041
256,araouane,18.9048,-3.5265,20.22,17,73,4.07,ML,1675627043
257,berlevag,70.8578,29.0864,-4.0,79,75,12.86,NO,1675627044
258,tasiilaq,65.6145,-37.6368,-6.84,88,100,1.95,GL,1675627046
259,chernyshevskiy,63.0128,112.4714,-47.21,100,65,0.38,RU,1675627048
260,meulaboh,4.1363,96.1285,23.28,89,100,2.08,ID,1675627048
261,faanui,-16.4833,-151.75,27.44,75,9,6.05,PF,1675627049
262,taoudenni,22.6783,-3.9836,18.93,18,62,4.74,ML,1675627050
263,guerrero negro,27.9769,-114.0611,18.4,59,3,6.51,MX,1675627050
264,pevek,69.7008,170.3133,-38.78,100,82,1.25,RU,1675627050
265,thaba nchu,-29.2093,26.839,22.15,34,20,2.57,ZA,1675627051
266,bambous virieux,-20.3428,57.7575,26.79,83,40,4.12,MU,1675627051
267,komatipoort,-25.4332,31.9548,21.7,89,0,2.12,ZA,1675627052
268,machiques,10.0644,-72.545,33.66,40,71,4.05,VE,1675627052
269,baoqing,46.3317,132.2111,-23.76,100,47,1.75,CN,1675627052
270,bodo,67.28,14.405,3.3,82,0,8.75,NO,1675627053
271,zhangye,38.9342,100.4517,-3.42,36,6,1.33,CN,1675627053
272,hay river,60.8156,-115.7999,-17.01,78,100,4.63,CA,1675627054
273,chapais,49.7834,-74.8492,-14.12,82,100,3.06,CA,1675627054
274,port lincoln,-34.7333,135.8667,15.88,84,14,4.73,AU,1675627054
275,kysyl-syr,63.8986,122.7617,-46.08,100,72,1.74,RU,1675627055
276,ulaanbaatar,47.9077,106.8832,-25.93,76,93,2.0,MN,1675626380
277,borogontsy,62.6683,131.1683,-34.85,100,99,0.8,RU,1675627056
278,boa vista,2.8197,-60.6733,26.99,69,75,4.63,BR,1675627056
279,iglesias,39.3114,8.535,10.44,91,56,1.39,IT,1675627057
280,mount isa,-20.7333,139.5,24.87,100,100,2.06,AU,1675627057
281,caconda,-13.7333,15.0667,15.82,77,100,1.63,AO,1675627057
282,petropavlovsk-kamchatskiy,53.0452,158.6483,-8.67,100,100,1.0,RU,1675627058
283,vestmannaeyjar,63.4427,-20.2734,9.08,89,100,18.2,IS,1675627058
284,ornskoldsvik,63.2909,18.7153,0.53,86,53,7.2,SE,1675627059
285,tahe,52.3333,124.7333,-29.13,100,27,1.6,CN,1675627059
286,vao,-22.6667,167.4833,26.13,87,91,7.98,NC,1675627060
287,mestia,43.0458,42.7278,-7.15,90,100,1.18,GE,1675627060
288,south lake tahoe,38.9332,-119.9844,0.47,87,70,3.13,US,1675626934
289,aquiraz,-3.9014,-38.3911,29.05,77,88,3.97,BR,1675627061
290,yantai,37.5333,121.4,1.56,80,100,3.15,CN,1675627061
291,aklavik,68.2191,-135.0107,-43.0,66,20,1.54,CA,1675627062
292,robertsganj,24.7,83.0667,14.05,52,0,0.87,IN,1675627062
293,seminole,28.7086,-81.2081,24.64,75,100,4.63,US,1675626957
294,mata,40.683,-7.4592,6.67,80,0,3.46,PT,1675627063
295,tiarei,-17.5333,-149.3333,30.01,75,100,6.85,PF,1675627063
296,hambantota,6.1241,81.1185,24.7,84,99,3.42,LK,1675627064
297,ostroleka,53.0862,21.5757,-6.71,87,54,2.51,PL,1675627064
298,conakry,9.538,-13.6773,27.04,78,75,3.09,GN,1675626914
299,dzaoudzi,-12.7887,45.2699,27.94,83,100,2.06,YT,1675627065
300,east london,-33.0153,27.9116,24.76,85,11,3.32,ZA,1675627065
301,batagay-alyta,67.8006,130.4114,-32.25,99,100,0.62,RU,1675627066
302,pangnirtung,66.1451,-65.7125,-33.0,68,75,0.0,CA,1675627066
303,road town,18.4167,-64.6167,27.05,69,40,6.17,VG,1675627066
304,solnechnyy,50.7214,136.6319,-24.2,97,41,1.38,RU,1675627067
305,batemans bay,-35.7167,150.1833,17.18,79,88,1.07,AU,1675627067
306,nanortalik,60.1432,-45.2371,-4.96,82,100,14.96,GL,1675627068
307,karratha,-20.7377,116.8463,30.44,54,11,3.94,AU,1675627068
308,pecos,31.4229,-103.4932,25.69,16,0,3.09,US,1675627069
309,funtua,11.5233,7.3081,25.02,15,98,4.26,NG,1675627069
310,san juan,-31.5375,-68.5364,36.7,15,0,3.74,AR,1675627070
311,eenhana,-17.4667,16.3333,20.82,62,100,2.5,NA,1675627070
312,chateaubelair,13.2833,-61.25,27.29,74,40,7.72,VC,1675627070
313,zabaykalsk,49.6333,117.3167,-23.47,100,79,3.19,RU,1675627071
314,ichhawar,23.0167,77.0167,18.27,30,0,1.19,IN,1675627071
315,beringovskiy,63.05,179.3167,-28.59,93,100,5.47,RU,1675627072
316,fukue,32.6881,128.8419,10.39,53,100,4.85,JP,1675627072
317,ostrovnoy,68.0531,39.5131,-14.15,97,92,5.11,RU,1675627072
318,tarko-sale,64.9225,77.785,-24.87,100,100,0.86,RU,1675627073
319,chongwe,-15.3292,28.682,20.32,96,100,1.41,ZM,1675627073
320,jalu,29.0331,21.5482,13.69,55,31,7.25,LY,1675627074
321,yermakovskoye,53.2831,92.4003,-23.6,100,94,0.26,RU,1675627074
322,roswell,34.0232,-84.3616,15.93,52,75,2.57,US,1675627075
323,port macquarie,-31.4333,152.9167,18.83,81,87,1.34,AU,1675627075
324,chinsali,-10.5414,32.0816,16.62,95,84,1.34,ZM,1675627075
325,moose factory,51.2585,-80.6094,-16.0,71,75,2.06,CA,1675627076
326,deputatskiy,69.3,139.9,-32.37,98,100,1.68,RU,1675627076
327,dzhebariki-khaya,62.2167,135.8,-35.58,100,99,0.22,RU,1675627077
328,port hedland,-20.3167,118.5667,27.03,83,6,1.54,AU,1675627077
329,great falls,47.5002,-111.3008,7.66,47,100,5.66,US,1675627060
330,guarapari,-20.6667,-40.4975,29.38,88,64,5.04,BR,1675627078
331,cayenne,4.9333,-52.3333,24.02,94,75,1.03,GF,1675627078
332,hualmay,-11.0964,-77.6139,25.19,68,60,3.91,PE,1675627078
333,sargatskoye,55.6101,73.4972,-17.67,98,100,2.28,RU,1675627079
334,peniche,39.3558,-9.3811,13.09,69,3,2.17,PT,1675627079
335,navalmoral de la mata,39.8916,-5.5406,11.09,61,11,0.93,ES,1675627080
336,ust-maya,60.4167,134.5333,-41.72,100,100,0.84,RU,1675627080
337,nouadhibou,20.931,-17.0347,21.99,33,100,6.17,MR,1675627081
338,vidim,56.4088,103.1106,-12.73,97,100,1.81,RU,1675627081
339,kattivakkam,13.2167,80.3167,25.05,78,4,2.03,IN,1675627081
340,tessalit,20.1986,1.0114,21.94,11,100,4.01,ML,1675627082
341,dvinskoy,62.1535,45.1175,-21.71,100,100,1.04,RU,1675627082
342,novoilinsk,51.6829,108.7143,-24.03,100,81,0.59,RU,1675627083
343,kourou,5.1552,-52.6478,24.03,88,100,5.67,GF,1675627083
344,oum hadjer,13.2954,19.6966,26.56,10,87,4.17,TD,1675627083
345,lucea,18.451,-78.1736,28.92,71,3,2.96,JM,1675627084
346,birao,10.2849,22.7882,24.96,13,12,2.31,CF,1675627084
347,anloga,5.7947,0.8973,27.67,84,100,6.79,GH,1675627085
348,repatriacion,-25.5333,-55.95,32.56,26,100,3.18,PY,1675627085
349,oranjemund,-28.55,16.4333,17.5,94,99,4.82,NA,1675627085
350,bucerias,20.75,-105.3333,29.39,45,0,4.23,MX,1675627086
351,aland,17.5667,76.5667,22.88,23,0,3.27,IN,1675627086
352,west fargo,46.875,-96.9004,-6.1,74,20,2.06,US,1675627087
353,montlucon,46.3333,2.6,3.72,88,87,4.46,FR,1675627087
354,padilla,3.2204,-76.3139,30.76,50,50,0.4,CO,1675627088
355,tucuman,-26.8241,-65.2226,30.0,51,20,2.06,AR,1675626845
356,salisbury,51.0693,-1.7957,3.43,82,83,2.57,GB,1675627088
357,sukumo,32.9333,132.7333,3.94,61,100,2.19,JP,1675627088
358,raipur,21.2333,81.6333,17.75,21,0,0.88,IN,1675627089
359,sieradz,51.5958,18.7302,-3.75,88,81,2.24,PL,1675626815
360,paka,4.6374,103.4368,25.96,89,100,3.09,MY,1675627089
361,dzerzhinsk,56.2389,43.4631,-6.1,85,100,3.0,RU,1675627090
362,tarancon,40.0085,-3.0073,8.9,34,0,0.74,ES,1675627090
363,clyde river,70.4692,-68.5914,-24.87,58,100,7.2,CA,1675627091
364,graaff-reinet,-32.2522,24.5308,22.18,79,5,5.78,ZA,1675627091
365,bull savanna,17.8868,-77.5902,27.21,58,0,8.36,JM,1675627091
366,fortuna,40.5982,-124.1573,9.4,95,75,4.12,US,1675627067
367,sanming,26.2486,117.6186,15.01,99,100,0.34,CN,1675627092
368,zaysan,47.4667,84.8667,-9.63,90,99,2.02,KZ,1675627092
369,krasnyy yar,46.5331,48.3456,-3.04,94,47,2.84,RU,1675627093
370,dambulla,7.86,80.6517,20.8,93,96,1.14,LK,1675627093
371,adrar,20.5022,-10.0711,17.45,24,76,4.71,MR,1675627094
372,durango,24.8333,-104.8333,21.59,19,0,2.96,MX,1675627094
373,parana,-31.732,-60.5238,34.75,32,0,2.04,AR,1675627095
374,creel,27.75,-107.6333,18.58,14,0,4.12,MX,1675627095
375,rio grande,-32.035,-52.0986,27.06,71,15,6.04,BR,1675627096
376,camara de lobos,32.6333,-16.9667,16.74,81,40,7.2,PT,1675627096
377,navrongo,10.8956,-1.0921,29.88,13,35,3.51,GH,1675627096
378,mocajuba,-2.5842,-49.5072,25.81,90,99,1.76,BR,1675627089
379,bilma,18.6853,12.9164,21.9,15,18,7.34,NE,1675627097
380,bara,10.3744,10.7288,26.98,16,67,3.88,NG,1675627097
381,imbituba,-28.24,-48.6703,25.95,64,54,2.95,BR,1675627098
382,shahrud,36.4182,54.9763,2.5,43,0,1.24,IR,1675627098
383,beira,-19.8436,34.8389,28.05,83,20,3.6,MZ,1675627099
384,cabo san lucas,22.8909,-109.9124,28.12,51,23,0.89,MX,1675627047
385,capao da canoa,-29.7456,-50.0097,28.71,51,3,4.09,BR,1675627099
386,reforma,18.1,-91.0167,26.16,66,67,1.99,MX,1675627100
387,port-cartier,50.0334,-66.8654,-14.03,85,100,3.15,CA,1675627100
388,eirunepe,-6.6603,-69.8736,25.32,82,100,1.22,BR,1675627101
389,yang talat,16.3998,103.3679,28.3,95,93,1.13,TH,1675627101
390,zyryanka,65.75,150.85,-35.48,100,100,1.07,RU,1675627101
391,sao filipe,14.8961,-24.4956,21.71,62,98,6.29,CV,1675627102
392,carnarvon,-24.8667,113.6333,24.88,75,1,6.69,AU,1675627102
393,norman wells,65.282,-126.8329,-30.98,76,75,0.0,CA,1675627103
394,gualeguay,-33.1416,-59.3097,34.59,15,0,1.84,AR,1675627103
395,port-gentil,-0.7193,8.7815,25.98,83,20,1.54,GA,1675627104
396,barranca,-10.75,-77.7667,24.69,67,28,4.37,PE,1675627104
397,ouesso,1.6136,16.0517,26.4,30,87,1.4,CG,1675627105
398,broome,42.2506,-75.833,6.5,52,0,5.14,US,1675627105
399,ugoofaaru,5.6667,73.0,26.85,76,98,1.99,MV,1675627106
400,faya,18.3851,42.4509,14.29,65,99,1.71,SA,1675627106
401,koumac,-20.5667,164.2833,27.92,80,99,2.62,NC,1675627107
402,notse,6.95,1.1667,29.68,57,100,4.56,TG,1675627108
403,kuminskiy,58.6667,66.5667,-14.8,99,100,1.09,RU,1675627111
404,arlit,18.7369,7.3853,25.21,11,6,4.62,NE,1675627112
405,los llanos de aridane,28.6585,-17.9182,13.96,72,75,5.14,ES,1675627112
406,sambava,-14.2667,50.1667,24.96,88,100,3.04,MG,1675627112
407,ossora,59.2353,163.0719,-24.87,80,7,2.1,RU,1675627113
408,chaumont,48.1167,5.1333,5.47,89,93,6.01,FR,1675627113
409,arica,-18.475,-70.3042,28.75,69,0,4.12,CL,1675627113
410,binika,21.0333,83.8,17.57,24,0,1.0,IN,1675627114
411,isangel,-19.55,169.2667,27.64,80,100,2.51,VU,1675627114
412,aksha,50.2814,113.2867,-20.61,96,22,1.95,RU,1675627115
413,acapulco,16.8634,-99.8901,30.1,47,0,4.51,MX,1675626960
414,vaitape,-16.5167,-151.75,27.46,75,9,6.07,PF,1675627115
415,lata,40.1629,-8.3327,8.13,71,0,1.99,PT,1675627116
416,roebourne,-20.7833,117.1333,30.8,51,11,4.12,AU,1675627116
417,katsuura,35.1333,140.3,8.42,82,0,2.36,JP,1675627116
418,vardo,70.3705,31.1107,-8.01,93,100,11.83,NO,1675627117
419,young,-32.6833,-57.6333,33.27,12,0,2.48,UY,1675627117
420,mairana,-18.1167,-63.9333,14.29,96,100,0.58,BO,1675627118
421,cabedelo,-6.9811,-34.8339,30.37,72,12,5.05,BR,1675627118
422,erenhot,43.6475,111.9767,-9.66,55,11,1.11,CN,1675627118
423,barra patuca,15.8,-84.2833,27.3,60,8,3.2,HN,1675627119
424,richards bay,-28.783,32.0377,22.64,88,9,1.77,ZA,1675627119
425,bolshoy lug,52.0779,104.0919,-22.68,100,90,1.24,RU,1675627120
426,deloraine,-41.5333,146.6667,9.44,15,25,1.14,AU,1675627120
427,gizo,-8.103,156.8419,25.33,94,100,8.74,SB,1675627120
428,japura,-0.3167,102.35,22.8,97,99,1.03,ID,1675627121
429,huilong,31.8111,121.655,7.18,89,100,3.73,CN,1675627121
430,kuchera,26.9839,73.9719,19.6,30,0,3.66,IN,1675627122
431,santa cruz,-17.8,-63.1667,28.03,69,75,4.63,BO,1675626840
432,fremont,37.5483,-121.9886,13.97,74,75,8.75,US,1675627054
433,kavieng,-2.5744,150.7967,27.36,74,100,1.31,PG,1675627123
434,tongliao,43.6125,122.2653,-11.05,74,9,0.56,CN,1675627123
435,garowe,8.4054,48.4845,21.36,62,34,5.75,SO,1675627123
436,grunstadt,49.5692,8.1681,6.4,96,100,3.11,DE,1675627124
437,yafran,32.0633,12.5286,8.28,87,65,2.54,LY,1675627124
438,hasaki,35.7333,140.8333,3.45,80,98,3.81,JP,1675627125
439,sitka,57.0531,-135.33,3.94,70,100,5.66,US,1675627125
440,brae,60.3964,-1.353,6.97,77,100,9.33,GB,1675627125
441,palembang,-2.9167,104.7458,24.05,100,89,1.54,ID,1675627126
442,ketchikan,55.3422,-131.6461,3.99,87,0,2.06,US,1675627126
443,comodoro rivadavia,-45.8667,-67.5,23.92,23,0,5.66,AR,1675627127
444,narwar,25.65,77.9,16.19,40,0,0.77,IN,1675627127
445,mold,53.1667,-3.1414,3.76,89,93,1.46,GB,1675627128
446,airai,-8.9266,125.4092,15.51,93,100,0.83,TL,1675627128
447,lashio,22.9333,97.75,10.66,55,70,0.69,MM,1675627128
448,pemangkat,1.1667,108.9667,24.4,90,95,2.04,ID,1675627129
449,fare,-16.7,-151.0167,27.6,74,42,6.42,PF,1675627130
450,ayorou,14.7308,0.9174,28.86,11,100,3.37,NE,1675627132
451,sundsvall,62.3913,17.3063,1.98,64,24,8.75,SE,1675627132
452,san carlos,9.6612,-68.5827,34.6,28,48,3.82,VE,1675626925
453,aksu,41.1231,80.2644,-5.99,84,100,2.37,CN,1675627133
454,ransang,8.9603,117.5828,24.91,86,33,1.33,PH,1675627133
455,sangar,63.9242,127.4739,-39.91,99,100,1.77,RU,1675627134
456,karwar,14.8,74.1333,23.89,61,3,1.87,IN,1675627134
457,sao joao da barra,-21.6403,-41.0511,30.05,85,12,6.06,BR,1675627134
458,puerto plata,19.7934,-70.6884,28.58,83,75,2.57,DO,1675627135
459,nyurba,63.2842,118.3319,-48.13,100,66,1.69,RU,1675627135
460,pervomayskiy,53.2485,40.2871,-5.15,96,100,1.64,RU,1675627136
461,tabou,4.423,-7.3528,26.64,85,100,3.98,CI,1675627136
462,bengkulu,-3.8004,102.2655,23.28,90,100,3.06,ID,1675627137
463,markapur,15.7333,79.2833,21.22,76,99,1.23,IN,1675627137
464,chifeng,42.2683,118.9636,-8.26,53,0,0.66,CN,1675627137
465,tornio,65.8481,24.1466,-7.99,91,100,1.82,FI,1675627138
466,setermoen,68.861,18.3486,2.46,86,100,3.57,NO,1675627138
467,sao jose da coroa grande,-8.8978,-35.1478,27.36,75,25,3.83,BR,1675627139
468,agnibilekrou,7.1344,-3.2047,29.24,29,98,0.83,CI,1675627139
469,awjilah,29.1081,21.2869,13.31,58,24,6.6,LY,1675627139
470,gigant,46.5066,41.3419,0.8,76,100,3.6,RU,1675627140
471,gladstone,-23.85,151.25,25.96,78,75,3.6,AU,1675627140
472,epe,6.5841,3.9834,27.28,84,100,3.8,NG,1675627141
473,bandarbeyla,9.4942,50.8122,24.03,74,68,7.39,SO,1675627141
474,narsaq,60.9167,-46.05,-10.15,92,88,4.42,GL,1675627141
475,majene,-3.5403,118.9707,25.1,81,100,3.22,ID,1675627142
476,basco,20.4487,121.9702,24.88,72,85,7.08,PH,1675627144
477,luderitz,-26.6481,15.1594,18.63,79,98,7.33,NA,1675627144
478,maputo,-25.9653,32.5892,26.82,69,40,5.36,MZ,1675627145
479,college,64.8569,-147.8028,-18.01,77,0,3.6,US,1675627146
480,barsovo,61.1667,73.1667,-19.93,99,100,1.15,RU,1675627146
481,mazagao,-0.115,-51.2894,29.03,74,85,2.31,BR,1675627116
482,pacific grove,36.6177,-121.9166,14.17,78,40,6.69,US,1675627148
483,gbadolite,4.2833,21.0167,26.15,24,0,1.13,CD,1675627148
484,orlik,52.5178,99.825,-22.46,99,98,0.84,RU,1675627149
485,sandnessjoen,66.0217,12.6316,2.06,80,0,3.6,NO,1675627150
486,noumea,-22.2763,166.4572,28.33,99,100,3.91,NC,1675626848
487,madison,34.7334,-86.5667,15.77,50,0,6.69,US,1675626666
488,la rioja,42.25,-2.5,0.88,90,65,2.39,ES,1675627153
489,vila,42.0304,-8.1588,6.49,66,0,1.9,PT,1675627154
490,azuqueca de henares,40.5669,-3.2599,12.63,41,0,4.12,ES,1675627155
491,yanji,42.9075,129.5078,-12.06,95,44,1.35,CN,1675627155
492,teguise,29.0605,-13.564,15.12,63,0,4.12,ES,1675627157
493,george,-33.963,22.4617,21.75,88,75,1.03,ZA,1675627158
494,yulara,-25.2406,130.9889,19.85,23,0,4.2,AU,1675627159
495,alice springs,-23.7,133.8833,12.75,82,0,2.57,AU,1675627159
496,litovko,49.2361,135.1742,-30.52,100,84,1.06,RU,1675627160
497,mahon,39.8885,4.2658,11.31,76,20,7.72,ES,1675627161
498,sola,-13.8833,167.55,28.12,75,100,8.44,VU,1675627161
499,xuanzhou,30.9525,118.7553,8.83,95,100,0.65,CN,1675627162
500,camana,-16.6228,-72.7111,25.4,75,92,2.44,PE,1675627162
501,vila velha,-20.3297,-40.2925,29.97,78,20,8.75,BR,1675627163
502,pedernales,18.0384,-71.744,29.64,51,62,8.23,DO,1675627164
503,manaure,11.7751,-72.4445,30.39,51,99,9.39,CO,1675627167
504,labytnangi,66.6572,66.4183,-20.67,94,21,2.1,RU,1675627169
505,saint-pierre,-21.3393,55.4781,26.82,78,20,1.54,RE,1675627169
506,sikonge,-5.6333,32.7667,18.9,87,100,2.01,TZ,1675627170
507,naze,28.3667,129.4833,17.51,80,100,4.53,JP,1675627170
508,baker city,44.7749,-117.8344,3.11,85,100,4.12,US,1675627171
509,mosquera,4.7059,-74.2302,19.05,42,75,6.17,CO,1675627171
510,marzuq,14.4,46.4667,17.94,76,94,2.5,YE,1675627172
511,yakeshi,49.2833,120.7333,-28.8,100,100,1.25,CN,1675627172
512,san quintin,30.4833,-115.95,18.19,59,3,9.27,MX,1675627172
513,balikpapan,-1.2675,116.8289,25.55,94,40,1.54,ID,1675626895
514,mountain home,43.133,-115.6912,5.64,75,75,3.6,US,1675627173
515,kwinana,-32.25,115.7667,22.88,85,0,1.34,AU,1675627159
516,baie-comeau,49.2168,-68.1489,-10.18,79,100,1.54,CA,1675627174
517,tiebissou,7.1574,-5.2257,31.05,35,92,1.37,CI,1675627174
518,grand-santi,4.25,-54.3833,23.24,98,100,1.49,GF,1675627175
519,luino,46.0019,8.7451,6.9,74,99,0.51,IT,1675627175
520,rudnichnyy,59.617,52.4703,-23.31,100,100,1.09,RU,1675627176
521,synya,65.3718,58.0387,-16.0,98,93,1.99,RU,1675627176
522,gorokhovets,56.1947,42.7003,-13.64,99,91,1.68,RU,1675627177
523,rio gallegos,-51.6226,-69.2181,17.03,29,40,17.49,AR,1675627177
524,kortkeros,61.8106,51.5806,-17.0,100,100,0.25,RU,1675627177
525,tala,30.6803,30.9429,13.34,33,40,6.67,EG,1675627178
526,albanel,48.8832,-72.4487,-12.92,72,100,2.57,CA,1675627178
527,kyabe,9.4515,18.9449,29.42,12,100,2.01,TD,1675627179
528,wattegama,6.7989,81.4808,22.33,89,100,2.15,LK,1675627179
529,teguldet,57.3064,88.1667,-24.27,100,100,0.55,RU,1675627180
530,ashland,40.8167,-82.2665,7.77,66,100,7.12,US,1675627180
531,mitsamiouli,-11.3847,43.2844,27.66,77,97,1.93,KM,1675627180
532,puerto maldonado,-12.6,-69.1833,28.22,78,40,3.09,PE,1675627181
533,myitkyina,25.3833,97.4,16.02,57,5,1.12,MM,1675627181
534,trairi,-3.2778,-39.2689,27.44,76,83,4.26,BR,1675626968
535,la ronge,55.1001,-105.2842,0.14,74,75,3.6,CA,1675627182
536,bowen,-20.0167,148.2333,27.26,84,22,5.62,AU,1675627182
537,batangafo,7.3008,18.2833,26.84,14,64,2.27,CF,1675627183
538,henties bay,-22.116,14.2845,18.31,87,100,2.51,NA,1675627183
539,kargil,34.5667,76.1,-20.7,82,100,0.97,IN,1675627184
540,cassilandia,-19.1133,-51.7342,25.3,84,98,0.86,BR,1675627013
541,gunnedah,-30.9833,150.25,17.71,71,0,1.96,AU,1675627184
542,olafsvik,64.8945,-23.7142,5.12,89,100,17.02,IS,1675627185
543,nipawin,53.3668,-104.0009,-0.98,93,40,5.14,CA,1675627185
544,le port,-20.9373,55.2919,27.0,81,100,2.98,RE,1675627186
545,sovetskiy,61.3614,63.5842,-14.14,98,100,1.01,RU,1675627186
546,healdsburg,38.6105,-122.8692,13.16,80,75,3.09,US,1675627186
547,koumra,8.9126,17.5539,28.93,12,100,1.66,TD,1675627187
548,huescar,37.811,-2.5412,7.84,57,1,1.54,ES,1675627187
549,podgorenskiy,50.405,39.6429,-6.97,96,100,2.57,RU,1675627187
550,bambanglipuro,-7.95,110.2833,25.73,85,100,4.79,ID,1675627188
551,havelock,34.8791,-76.9013,18.99,72,100,3.6,US,1675627188
552,maceio,-9.6658,-35.7353,28.69,74,75,4.63,BR,1675627189
553,khani,41.9563,42.9566,3.76,63,100,2.85,GE,1675627189
554,santa rosa,14.3122,121.1114,25.99,86,99,2.94,PH,1675627045
555,nacajuca,18.1333,-93.0167,22.23,72,90,1.42,MX,1675627190
556,amos,48.5669,-78.1162,-10.76,90,100,3.04,CA,1675627190
557,jacqueville,5.2052,-4.4146,27.24,84,57,6.35,CI,1675627190
558,krasnoselkup,65.7,82.4667,-18.49,99,89,1.92,RU,1675627191
559,chipinge,-20.1883,32.6236,20.19,63,78,1.45,ZW,1675627191
560,antiguo morelos,22.5495,-99.0812,27.08,33,0,2.66,MX,1675627192
561,tanete,-3.9443,119.7848,23.62,96,100,1.05,ID,1675627192
562,boyolangu,-8.1181,111.8935,24.43,82,100,1.05,ID,1675627193
563,pontal do parana,-25.6533,-48.5128,32.77,67,95,3.16,BR,1675627193
564,haines junction,60.7522,-137.5108,-11.03,85,100,0.51,CA,1675627193
565,gravelbourg,49.8834,-106.5512,3.15,75,41,6.32,CA,1675627144
566,ritchie,-29.038,24.6028,25.58,42,75,3.67,ZA,1675627194
567,sorland,67.667,12.6934,3.92,62,100,10.46,NO,1675627194
568,bardejov,49.2918,21.2727,-4.68,92,72,3.11,SK,1675627195
569,niesky,51.2924,14.8211,-4.33,83,98,1.97,DE,1675627195
570,manado,1.487,124.8455,24.43,100,40,0.51,ID,1675627196
571,newcastleton,55.1796,-2.8127,2.8,91,99,2.33,GB,1675627196
572,porto novo,6.4965,2.6036,27.35,82,100,4.54,BJ,1675627196
573,isugod,9.3408,118.1196,24.39,88,46,1.52,PH,1675627197
574,zonguldak,41.25,31.8333,-0.23,90,100,0.95,TR,1675627197
575,bagn,60.8225,9.5521,-6.41,94,100,2.27,NO,1675627198
576,pangody,65.85,74.4859,-24.66,100,100,2.1,RU,1675627198
577,oranjestad,12.524,-70.027,28.97,65,20,11.83,AW,1675627101
578,sakakah,29.9697,40.2064,13.76,35,100,3.74,SA,1675627199
579,muroto,33.2833,134.15,9.58,57,99,3.02,JP,1675627199
580,nuoro,40.3211,9.3297,7.43,94,100,0.9,IT,1675627199
581,qaqortoq,60.7167,-46.0333,-6.98,93,100,5.22,GL,1675627201
582,olinda,-8.0089,-34.8553,27.85,74,40,3.6,BR,1675627211
583,aduturai,11.0147,79.4791,20.92,91,91,3.05,IN,1675627224
584,port moresby,-9.4431,147.1797,23.68,100,20,2.57,PG,1675627226
585,floro,61.5996,5.0328,7.2,87,75,6.17,NO,1675627226
586,dandong,40.1292,124.3947,-2.55,84,79,1.35,CN,1675627235
587,maryborough,-25.5333,152.7,24.19,93,97,3.37,AU,1675627236
588,meridian,43.6121,-116.3915,9.88,62,20,3.09,US,1675627237
589,methoni,36.8197,21.7049,5.92,60,25,9.79,GR,1675627237
590,watrous,51.6668,-105.4679,-9.12,86,10,9.26,CA,1675627239
591,mbeya,-8.9,33.45,15.11,93,100,0.98,TZ,1675627240
592,kailua,21.4022,-157.7394,25.08,82,27,2.24,US,1675627240
593,komsomolskiy,40.4272,71.7189,3.4,93,100,1.03,UZ,1675627241
594,ternate,0.8,127.4,25.0,85,100,2.68,ID,1675627241
595,grootfontein,-19.5667,18.1167,18.97,86,100,2.47,NA,1675627242
596,udimskiy,61.1417,45.9144,-17.19,100,99,0.18,RU,1675627242
597,shimoda,34.6667,138.95,4.5,64,0,3.92,JP,1675627243
598,swift current,50.2834,-107.8014,1.45,69,0,8.75,CA,1675627244
599,tokonou,9.65,-9.7833,27.88,15,21,1.48,GN,1675627244
600,dongsheng,39.8161,109.9776,-4.95,38,100,2.22,CN,1675627245
601,seymchan,62.8833,152.4333,-33.54,94,87,1.37,RU,1675627246
602,asau,46.4333,26.4,-4.29,93,100,3.68,RO,1675627246
603,abeche,13.8292,20.8324,24.55,10,94,3.54,TD,1675627247
604,wasilla,61.5814,-149.4394,-1.81,75,20,6.17,US,1675627007
